{"type":"FeatureCollection","features":[{"type":"Feature","id":0,"properties":{"marker-color":"#00B200","name":"Bridgeport","url":"http://www.chicagofarmersmarkets.us"},"geometry":{"type":"Point","coordinates":[-87.64123528,41.83081542,0]}},{"type":"Feature","id":1,"properties":{"marker-color":"#B20000","name":"Glenwood Sunday Market","url":"http://www.glenwoodsundaymarket.org"},"geometry":{"type":"Point","coordinates":[-87.66633292,42.00820666,0]}},{"type":"Feature","id":2,"properties":{"marker-color":"#B20000","name":"Loyola's Farmers Market","url":"http://www.luc.edu/farmersmarket/"},"geometry":{"type":"Point","coordinates":[-87.66089975,42.00175513,0]}},{"type":"Feature","id":3,"properties":{"marker-color":"#B20000","name":"Seaway Bank Farmer's Market","url":"http://www.seawaybank.us","marker-symbol":"cross"},"geometry":{"type":"Point","coordinates":[-87.60784689,41.73649711,0]}},{"type":"Feature","id":4,"properties":{"marker-color":"#B20000","name":"Beverly","url":"http://www.chicagofarmersmarkets.us"},"geometry":{"type":"Point","coordinates":[-87.66913968,41.72112349,0]}},{"type":"Feature","id":5,"properties":{"marker-color":"#00B200","name":"Bronzeville","url":"http://www.qcdc.org"},"geometry":{"type":"Point","coordinates":[-87.60682726,41.81490392,0]}},{"type":"Feature","id":6,"properties":{"marker-color":"#B20000","name":"Daley Plaza","url":"http://www.chicagofarmersmarkets.us"},"geometry":{"type":"Point","coordinates":[-87.62943537,41.88321489,0]}},{"type":"Feature","id":7,"properties":{"marker-color":"#B20000","name":"Federal Plaza","url":"http://www.chicagofarmersmarkets.us"},"geometry":{"type":"Point","coordinates":[-87.62935175,41.87943817,0]}},{"type":"Feature","id":8,"properties":{"marker-color":"#B20000","name":"Pullman","url":"http://www.chicagofarmersmarkets.us"},"geometry":{"type":"Point","coordinates":[-87.61006528,41.69182489,0]}},{"type":"Feature","id":9,"properties":{"marker-color":"#B20000","name":"Hyde Park","url":"http://www.chicagofarmersmarkets.us"},"geometry":{"type":"Point","coordinates":[-87.58730178,41.79956402,0]}},{"type":"Feature","id":10,"properties":{"marker-color":"#00B200","name":"Lincoln Park","url":"http://www.chicagofarmersmarkets.us"},"geometry":{"type":"Point","coordinates":[-87.64611765,41.91821424,0]}},{"type":"Feature","id":11,"properties":{"marker-color":"#B20000","name":"Lincoln Square","url":"http://www.chicagofarmersmarkets.us"},"geometry":{"type":"Point","coordinates":[-87.68884838,41.96675825,0]}},{"type":"Feature","id":12,"properties":{"marker-color":"#B20000","name":"Museum of Contemporary Art/Streeterville","url":"http://www.chicagofarmersmarkets.us"},"geometry":{"type":"Point","coordinates":[-87.62183105,41.89676861,0]}},{"type":"Feature","id":13,"properties":{"marker-color":"#00B200","name":"Division Street","url":"http://www.chicagofarmersmarkets.us"},"geometry":{"type":"Point","coordinates":[-87.62998608,41.90392319,0]}},{"type":"Feature","id":14,"properties":{"marker-color":"#00B200","name":"Northcenter","url":"http://www.chicagofarmersmarkets.us"},"geometry":{"type":"Point","coordinates":[-87.67881119,41.95598338,0]}},{"type":"Feature","id":15,"properties":{"marker-color":"#00B200","name":"Printer's Row","url":"http://www.chicagofarmersmarkets.us"},"geometry":{"type":"Point","coordinates":[-87.6291295,41.87228245,0]}},{"type":"Feature","id":16,"properties":{"marker-color":"#B20000","name":"South Shore","url":"http://www.chicagofarmersmarkets.us"},"geometry":{"type":"Point","coordinates":[-87.57634848,41.76798107,0]}},{"type":"Feature","id":17,"properties":{"marker-color":"#B20000","name":"Willis Tower Plaza","url":"http://www.chicagofarmersmarkets.us"},"geometry":{"type":"Point","coordinates":[-87.636915,41.87807886,0]}},{"type":"Feature","id":18,"properties":{"marker-color":"#B20000","name":"Uptown Market at Weiss","url":"http://www.chicagofarmersmarkets.us"},"geometry":{"type":"Point","coordinates":[-87.64913504,41.96685955,0]}},{"type":"Feature","id":19,"properties":{"marker-color":"#B20000","name":"Wicker Park & Bucktown","url":"http://www.chicagofarmersmarkets.us"},"geometry":{"type":"Point","coordinates":[-87.6774201,41.90890055,0]}},{"type":"Feature","id":20,"properties":{"marker-color":"#B20000","name":"Wood Street Farm Stand","url":"http://www.growinghomeinc.org"},"geometry":{"type":"Point","coordinates":[-87.66942976,41.7880369,0]}},{"type":"Feature","id":21,"properties":{"marker-color":"#B20000","name":"Rowan Tree Garden Society","url":"http://www.teamworkenglewood.org"},"geometry":{"type":"Point","coordinates":[-87.63761122,41.78068988,0]}},{"type":"Feature","id":22,"properties":{"marker-color":"#00B200","name":"Eden Place","url":"http://www.edenplacenaturecenter.com/"},"geometry":{"type":"Point","coordinates":[-87.63557814,41.81403452,0]}},{"type":"Feature","id":23,"properties":{"marker-color":"#B20000","name":"West Humboldt Park Farmers Market & Bazaar","url":"http://www.whpdevelopmentcouncil.net/index.html"},"geometry":{"type":"Point","coordinates":[-87.71637302,41.8953505,0]}},{"type":"Feature","id":24,"properties":{"marker-color":"#00B200","name":"Southport Market","url":"http://www.chicagofarmersmarkets.us"},"geometry":{"type":"Point","coordinates":[-87.66495825,41.95080812,0]}},{"type":"Feature","id":25,"properties":{"marker-color":"#B20000","name":"Andersonville","url":"http://www.andersonville.org"},"geometry":{"type":"Point","coordinates":[-87.66966365,41.9780001,0]}},{"type":"Feature","id":26,"properties":{"marker-color":"#B20000","name":"Green City Market","url":"http://www.greencitymarket.org"},"geometry":{"type":"Point","coordinates":[-87.63373572,41.9143422,0]}},{"type":"Feature","id":27,"properties":{"marker-color":"#00B200","name":"61st Street","url":"http://www.experimentalstation.org"},"geometry":{"type":"Point","coordinates":[-87.59044512,41.78409362,0]}},{"type":"Feature","id":28,"properties":{"marker-color":"#B20000","name":"Independence Park","url":"http://www.independence-park.com"},"geometry":{"type":"Point","coordinates":[-87.72494811,41.95322543,0]}},{"type":"Feature","id":29,"properties":{"marker-color":"#B20000","name":"Logan Square","url":"http://www.logansquarefarmersmarket.org"},"geometry":{"type":"Point","coordinates":[-87.70520826,41.92829303,0]}},{"type":"Feature","id":30,"properties":{"marker-color":"#B20000","name":"Pilsen Community Market","url":"http://www.pilsencommunitymarket.org"},"geometry":{"type":"Point","coordinates":[-87.64679527,41.85806266,0]}},{"type":"Feature","id":31,"properties":{"marker-color":"#B20000","name":"Chicago's Downtown Farmstand","url":"http://www.chicagofarmstand.com","marker-symbol":"cross"},"geometry":{"type":"Point","coordinates":[-87.62547448,41.88460847,0]}},{"type":"Feature","id":32,"properties":{"marker-color":"#B20000","name":"City Farm Market Stand","url":"http://www.cityfarmchicago.org"},"geometry":{"type":"Point","coordinates":[-87.63989638,41.90385481,0]}},{"type":"Feature","id":33,"properties":{"marker-color":"#B20000","name":"Portage Park","url":null},"geometry":{"type":"Point","coordinates":[-87.76712318,41.95683159,0]}},{"type":"Feature","id":34,"properties":{"marker-color":"#B20000","name":"La Follette Park","url":"http://www.chicagofarmersmarkets.us"},"geometry":{"type":"Point","coordinates":[-87.75569246,41.90505469,0]}},{"type":"Feature","id":35,"properties":{"marker-color":"#B20000","name":"Healing Temple Church","url":"http://www.chicagofarmersmarkets.us"},"geometry":{"type":"Point","coordinates":[-87.74989801,41.89486207,0]}},{"type":"Feature","id":36,"properties":{"marker-color":"#B20000","name":"Columbus Park","url":"http://www.chicagofarmersmarkets.us"},"geometry":{"type":"Point","coordinates":[-87.76458743,41.87282668,0]}},{"type":"Feature","id":37,"properties":{"marker-color":"#B20000","name":"Austin Town Center","url":"http://www.chicagofarmersmarkets.us"},"geometry":{"type":"Point","coordinates":[-87.76511942,41.8877289,0]}},{"type":"Feature","id":38,"properties":{"marker-color":"#B20000","name":"Mount Ebenezer Baptist Church","url":"http://www.chicagofarmersmarkets.us"},"geometry":{"type":"Point","coordinates":[-87.71601471,41.89351985,0]}},{"type":"Feature","id":39,"properties":{"marker-color":"#B20000","name":"Wheeler Mansion Market","url":"http://marketatthemansion.wordpress.com/about/"},"geometry":{"type":"Point","coordinates":[-87.61923592,41.85492363,0]}},{"type":"Feature","id":40,"properties":{"marker-color":"#00B200","name":"Edgewater","url":null},"geometry":{"type":"Point","coordinates":[-87.66032349,41.9918227,0]}},{"type":"Feature","id":41,"properties":{"marker-color":"#B20000","name":"Homegrown Bronzeville","url":"http://www.greenyouthfarm.com"},"geometry":{"type":"Point","coordinates":[-87.61768784,41.80197062,0]}},{"type":"Feature","id":42,"properties":{"marker-color":"#B20000","name":"Covenant Bank - North Lawndale","url":null},"geometry":{"type":"Point","coordinates":[-87.71044099,41.86780306,0]}},{"type":"Feature","id":43,"properties":{"marker-color":"#B20000","name":"Jefferson Park Sunday Market","url":"http://www.jpna.net/FM"},"geometry":{"type":"Point","coordinates":[-87.75834697,41.96800571,0]}}]}
